     2.11           Observation data    Mixed               RINEX VERSION / TYPE
BNC 2.8             Weber               27-Jan-13 08:41     PGM / RUN BY / DATE
ffmj                                                        MARKER NAME
14279M001                                                   MARKER NUMBER
matthias.groeschel@ BKG                                     OBSERVER / AGENCY
AFP2LB8MMM8         JPS LEGACY          3.4 DEC,12,2009 p2  REC # / TYPE / VERS
10231013            LEIAR25.R4      LEIT                    ANT # / TYPE
  4053455.9900   617729.5250  4869395.6150                  APPROX POSITION XYZ
        0.0450        0.0000        0.0000                  ANTENNA: DELTA H/E/N
     1     1                                                WAVELENGTH FACT L1/2
     8    C1    P1    L1    S1    C2    P2    L2    S2      # / TYPES OF OBSERV
    30.000                                                  INTERVAL
  2012    12    15     0     0    0.0000000     GPS         TIME OF FIRST OBS
                                                            END OF HEADER
 12 12 15 00 00  0.0000000  0 19G 1G 9G12G15G17G18G22G24G26G28R 6R 7
                                R 8R 9R15R16R17R18R19
  25231065.112                   132590144.740          39.000                  
  25231069.052   103317002.549          19.000  
  19665823.270                   103344623.044          50.000                  
  19665824.270    80528300.591          42.000  
  22118969.714                   116235976.379          48.000                  
  22118971.374    90573504.803          37.000  
  21487884.478                   112919609.525          50.000                  
  21487886.018    87989319.976          40.000  
  22129007.974                   116288732.214          49.000                  
  22129008.474    90614615.409          39.000  
  23496459.904                   123474711.111          46.000                  
  23496460.224    96214078.590          27.000  
  23997956.180                   126110105.752          45.000                  
  23997953.980    98267638.280          27.000  
  20329481.466                   106832149.031          50.000                  
  20329484.966    83245864.046          42.000  
  24153928.860                   126929754.570          45.000                  
  24153930.140    98906313.421          25.000  
  24557380.298                   129049937.759          43.000                  
  24557380.898   100558405.871          23.000  
  22888475.388                   122137300.598          47.000                  
  22888478.888    94995690.508          39.000  
  21016885.160                   112505012.266          51.000                  
  21016884.660    87503921.187          46.000  
  22593634.292                   120987890.749          45.000                  
  22593629.772    94101717.180          37.000  
  20182431.108                   107773075.537          53.000                  
  20182433.648    83823539.095          46.000  
  23169411.888                   123810323.698          45.000                  
  23169415.308    96296954.049          38.000  
  19727964.852                   105383273.712          51.000                  
  19727969.412    81964809.153          47.000  
  21843034.376                   116886496.804          48.000                  
  21843034.296    90911757.172          43.000  
  20768491.704                   110863622.565          52.000                  
  20768495.364    86227303.748          46.000  
  23455160.364                   125469319.005          44.000                  
  23455162.224    97587267.010          38.000  
 12 12 15 00 00 30.0000000  0 19G 1G 9G12G15G17G18G22G24G26G28R 6R 7
                                R 8R 9R15R16R17R18R19
  25224230.772                   132554226.725          39.000                  
  25224233.972   103289014.443          19.000  
  19659016.530                   103308853.951          50.000                  
  19659017.630    80500428.560          42.000  
  22094313.554                   116106407.097          49.000                  
  22094315.094    90472541.730          38.000  
  21494352.918                   112953599.825          50.000                  
  21494354.158    88015805.902          40.000  
  22122779.474                   116256000.771          51.000                  
  22122780.014    90589110.389          39.000  
  23497553.424                   123480461.052          44.000                  
  23497553.904    96218559.034          26.000  
  23989217.320                   126064182.911          44.000                  
  23989215.200    98231854.221          28.000  
  20316698.926                   106764974.412          50.000                  
  20316702.086    83193520.187          42.000  
  24169319.520                   127010635.748          45.000                  
  24169321.220    98969337.713          24.000  
  24567356.598                   129102370.048          41.000                  
  24567359.058   100599262.179          22.000  
  22904820.368                   122224524.516          46.000                  
  22904824.388    95063531.316          39.000  
  21018246.000                   112512300.022          51.000                  
  21018246.060    87509589.429          46.000  
  22574372.852                   120884742.068          46.000                  
  22574367.732    94021490.416          37.000  
  20163793.988                   107673555.521          53.000                  
  20163796.748    83746134.643          46.000  
  23180214.708                   123868054.097          44.000                  
  23180219.048    96341855.428          38.000  
  19727687.792                   105381790.240          51.000                  
  19727691.832    81963655.325          47.000  
  21846602.016                   116905583.444          49.000                  
  21846601.256    90926602.351          42.000  
  20749837.324                   110764044.602          52.000                  
  20749840.904    86149854.238          46.000  
  23422032.944                   125292102.245          45.000                  
  23422032.684    97449431.752          38.000  
 12 12 15 00 01  0.0000000  0 19G 1G 9G12G15G17G18G22G24G26G28R 6R 7
                                R 8R 9R15R16R17R18R19
  25217497.712                   132518843.760          41.000                  
  25217500.452   103261443.282          19.000  
  19652299.630                   103273553.734          51.000                  
  19652300.330    80472921.893          41.000  
  22069714.174                   115977135.724          50.000                  
  22069715.614    90371810.796          38.000  
  21500897.418                   112987992.821          50.000                  
  21500899.098    88042605.622          40.000  
  22116658.294                   116223836.824          51.000                  
  22116659.414    90564047.575          39.000  
  23498727.304                   123486623.509          46.000                  
  23498726.204    96223360.915          26.000  
  23980578.062                   126018782.179          44.000                  
  23980575.122    98196477.032          27.000  
  20303983.466                   106698158.315          51.000                  
  20303987.346    83141455.711          42.000  
  24184725.840                   127091600.329          43.000                  
  24184727.920    99032426.975          24.000  
  24577343.138                   129154840.584          42.000                  
  24577343.058   100640148.313          22.000  
  22921197.368                   122311914.062          45.000                  
  22921201.208    95131500.938          39.000  
  21019746.880                   112520335.563          51.000                  
  21019746.940    87515839.273          45.000  
  22555239.232                   120782276.402          47.000                  
  22555233.112    93941794.906          38.000  
  20145215.888                   107574344.889          53.000                  
  20145217.528    83668970.815          46.000  
  23191033.288                   123925858.500          45.000                  
  23191036.208    96386814.369          38.000  
  19727478.332                   105380668.904          51.000                  
  19727481.932    81962783.158          46.000  
  21850301.276                   116925381.366          49.000                  
  21850301.056    90942000.733          42.000  
  20731320.924                   110665205.574          52.000                  
  20731324.844    86072979.449          46.000  
  23388917.504                   125114950.043          46.000                  
  23388915.904    97311646.711          38.000  
 12 12 15 00 01 30.0000000  0 19G 1G 9G12G15G17G18G22G24G26G28R 6R 7
                                R 8R 9R15R16R17R18R19
  25210866.792                   132483997.359          41.000                  
  25210870.912   103234290.241          19.000  
  19645671.230                   103238724.092          52.000                  
  19645672.530    80445781.909          42.000  
  22045171.954                   115848164.822          49.000                  
  22045173.294    90271314.024          38.000  
  21507519.838                   113022788.000          51.000                  
  21507520.578    88069718.729          40.000  
  22110646.634                   116192241.210          50.000                  
  22110646.974    90539427.626          39.000  
  23499977.684                   123493197.359          44.000                  
  23499978.004    96228483.363          26.000  
  23972038.062                   125973904.762          44.000                  
  23972035.942    98161507.622          27.000  
  20291338.006                   106631702.965          50.000                  
  20291341.326    83089672.332          43.000  
  24200149.380                   127172647.654          43.000                  
  24200150.700    99095580.724          23.000  
  24587334.996                   129207349.256          42.000                  
  24587335.456   100681064.196          22.000  
  22937605.268                   122399465.886          45.000                  
  22937609.028    95199596.782          39.000  
  21021388.420                   112529117.973          51.000                  
  21021387.500    87522670.014          44.000  
  22536232.132                   120680496.876          46.000                  
  22536226.992    93862633.047          38.000  
  20126695.388                   107475445.497          53.000                  
  20126696.788    83592049.071          46.000  
  23201864.728                   123983737.865          45.000                  
  23201868.028    96431831.643          37.000  
  19727336.352                   105379910.582          52.000                  
  19727339.992    81962193.346          46.000  
  21854132.336                   116945889.249          48.000                  
  21854133.496    90957951.316          42.000  
  20712945.624                   110567109.269          53.000                  
  20712947.664    85996682.335          45.000  
  23355814.548                   124937868.576          47.000                  
  23355812.388    97173916.660          38.000  
 12 12 15 00 02  0.0000000  0 19G 1G 9G12G15G17G18G22G24G26G28R 6R 7
                                R 8R 9R15R16R17R18R19
  25204339.972                   132449699.603          40.000                  
  25204344.052   103207564.686          20.000  
  19639135.470                   103204377.753          53.000                  
  19639136.710    80419018.530          42.000  
  22020689.974                   115719508.256          49.000                  
  22020690.594    90171062.183          38.000  
  21514218.698                   113057996.520          50.000                  
  21514220.478    88097153.925          40.000  
  22104744.074                   116161225.956          51.000                  
  22104745.134    90515259.894          38.000  
  23501308.124                   123500192.914          45.000                  
  23501308.924    96233934.427          25.000  
  23963600.142                   125929562.789          45.000                  
  23963598.182    98126955.456          28.000  
  20278763.346                   106565621.359          51.000                  
  20278766.406    83038180.179          43.000  
  24215589.900                   127253787.703          44.000                  
  24215591.720    99158806.736          23.000  
  24597337.516                   129259907.486          44.000                  
  24597336.316   100722018.648          21.000  
  22954043.308                   122487188.399          44.000                  
  22954047.708    95267825.389          39.000  
  21023169.740                   112538656.947          50.000                  
  21023169.540    87530089.203          45.000  
  22517356.212                   120579419.431          46.000                  
  22517351.472    93784017.266          38.000  
  20108234.948                   107376870.912          53.000                  
  20108237.128    83515379.958          46.000  
  23212712.108                   124041704.282          45.000                  
  23212717.028    96476916.606          39.000  
  19727264.612                   105379527.098          52.000                  
  19727268.172    81961895.074          47.000  
  21858099.856                   116967116.769          48.000                  
  21858100.556    90974461.589          44.000  
  20694710.184                   110469771.299          52.000                  
  20694713.524    85920975.027          46.000  
  23322725.288                   124760874.008          46.000                  
  23322724.728    97036254.214          37.000  
 12 12 15 00 02 30.0000000  0 19G 1G 9G12G15G17G18G22G24G26G28R 6R 7
                                R 8R 9R15R16R17R18R19
  25197916.032                   132415948.709          38.000                  
  25197919.832   103181265.235          19.000  
  19632691.230                   103170513.196          51.000                  
  19632692.330    80392630.557          41.000  
  21996267.054                   115591165.337          50.000                  
  21996267.694    90071054.740          38.000  
  21520996.658                   113093614.575          50.000                  
  21520998.298    88124908.235          40.000  
  22098952.394                   116130789.096          49.000                  
  22098953.214    90491542.862          39.000  
  23502719.904                   123507606.535          44.000                  
  23502720.304    96239711.235          25.000  
  23955262.102                   125885754.674          44.000                  
  23955261.362    98092819.295          27.000  
  20266258.986                   106499913.045          51.000                  
  20266262.626    82986978.893          43.000  
  24231048.240                   127335016.662          42.000                  
  24231048.460    99222102.021          23.000  
  24607347.576                   129312511.415          42.000                  
  24607346.576   100763008.741          21.000  
  22970515.588                   122575075.101          45.000                  
  22970518.108    95336181.674          39.000  
  21025093.200                   112548948.170          51.000                  
  21025091.660    87538093.457          45.000  
  22498610.052                   120479044.242          45.000                  
  22498606.952    93705947.683          38.000  
  20089835.508                   107278620.135          52.000                  
  20089837.948    83438962.694          47.000  
  23223575.948                   124099754.973          45.000                  
  23223579.328    96522067.159          38.000  
  19727262.932                   105379516.358          52.000                  
  19727266.072    81961886.706          47.000  
  21862200.476                   116989059.458          47.000                  
  21862200.916    90991528.119          43.000  
  20676619.384                   110373192.561          53.000                  
  20676621.064    85845858.245          46.000  
  23289656.088                   124583968.868          47.000                  
  23289654.128    96898661.315          38.000  
 12 12 15 00 03  0.0000000  0 19G 1G 9G12G15G17G18G22G24G26G28R 6R 7
                                R 8R 9R15R16R17R18R19
  25191597.932                   132382739.865          39.000                  
  25191601.972   103155388.181          21.000  
  19626337.410                   103137125.507          51.000                  
  19626338.850    80366614.169          42.000  
  21971902.934                   115463132.299          51.000                  
  21971903.954    89971288.753          38.000  
  21527850.878                   113129634.588          50.000                  
  21527852.698    88152975.756          40.000  
  22093269.654                   116100925.591          51.000                  
  22093270.154    90468272.609          39.000  
  23504208.344                   123515431.106          45.000                  
  23504208.624    96245808.262          25.000  
  23947026.762                   125842474.481          44.000                  
  23947026.022    98059094.471          28.000  
  20253826.046                   106434573.563          52.000                  
  20253828.926    82936065.013          42.000  
  24246519.480                   127416327.274          41.000                  
  24246521.600    99285460.931          23.000  
  24617363.256                   129365155.275          41.000                  
  24617364.256   100804029.949          21.000  
  22987015.828                   122663117.228          45.000                  
  22987017.468    95404658.867          39.000  
  21027153.360                   112559983.865          50.000                  
  21027153.840    87546676.765          45.000  
  22479998.172                   120379369.594          46.000                  
  22479993.752    93628422.932          38.000  
  20071496.088                   107180689.083          52.000                  
  20071498.708    83362794.102          47.000  
  23234454.908                   124157884.357          44.000                  
  23234457.108    96567278.887          38.000  
  19727329.372                   105379872.935          53.000                  
  19727333.072    81962164.036          47.000  
  21866433.076                   117011709.167          47.000                  
  21866434.016    91009144.549          43.000  
  20658666.724                   110277370.991          52.000                  
  20658670.524    85771330.372          46.000  
  23256601.728                   124407152.160          47.000                  
  23256601.008    96761137.202          38.000  
 12 12 15 00 03 30.0000000  0 19G 1G 9G12G15G17G18G22G24G26G28R 6R 7
                                R 8R 9R15R16R17R18R19
  25185381.852                   132350075.671          40.000                  
  25185386.872   103129935.500          21.000  
  19620075.950                   103104218.043          50.000                  
  19620076.630    80340971.992          41.000  
  21947599.774                   115335413.975          50.000                  
  21947599.654    89871767.967          38.000  
  21534782.278                   113166058.042          50.000                  
  21534784.098    88181357.651          40.000  
  22087696.174                   116071637.242          51.000                  
  22087696.534    90445450.517          39.000  
  23505775.204                   123523667.255          44.000                  
  23505776.284    96252226.016          25.000  
  23938893.642                   125799725.456          45.000                  
  23938891.162    98025783.534          28.000  
  20241463.086                   106369607.159          50.000                  
  20241466.106    82885441.848          42.000  
  24262008.800                   127497720.559          41.000                  
  24262009.880    99348884.262          22.000  
  24627390.556                   129417840.451          43.000                  
  24627389.896   100845083.357          21.000  
  23003541.368                   122751313.014          44.000                  
  23003545.048    95473255.564          38.000  
  21029354.240                   112571764.245          50.000                  
  21029354.440    87555839.270          45.000  
  22461514.272                   120280400.710          44.000                  
  22461511.912    93551447.119          38.000  
  20053217.168                   107083081.575          52.000                  
  20053219.868    83286877.159          47.000  
  23245345.328                   124216094.950          44.000                  
  23245349.728    96612553.783          38.000  
  19727465.452                   105380598.993          52.000                  
  19727468.872    81962728.733          46.000  
  21870796.296                   117035066.179          45.000                  
  21870798.456    91027311.120          43.000  
  20640860.764                   110182312.197          53.000                  
  20640862.324    85697395.765          46.000  
  23223565.888                   124230431.226          47.000                  
  23223564.828    96623687.575          38.000  
 12 12 15 00 04  0.0000000  0 19G 1G 9G12G15G17G18G22G24G26G28R 6R 7
                                R 8R 9R15R16R17R18R19
  25179271.634                   132317957.700          40.000                  
  25179273.974   103104908.566          20.000  
  19613905.610                   103071792.357          50.000                  
  19613906.310    80315705.220          41.000  
  21923355.554                   115208012.584          50.000                  
  21923356.154    89772494.146          37.000  
  21541789.758                   113202884.403          51.000                  
  21541791.798    88210053.498          40.000  
  22082232.434                   116042925.972          49.000                  
  22082232.774    90423078.099          38.000  
  23507420.844                   123532314.080          45.000                  
  23507421.504    96258963.789          24.000  
  23930859.062                   125757508.385          44.000                  
  23930857.222    97992887.105          28.000  
  20229171.326                   106305015.343          51.000                  
  20229174.626    82835110.569          42.000  
  24277513.640                   127579195.490          41.000                  
  24277513.960    99412371.197          22.000  
  24637424.196                   129470566.781          43.000                  
  24637422.556   100886168.801          21.000  
  23020097.088                   122839659.706          44.000                  
  23020100.688    95541969.637          38.000  
  21031694.500                   112584288.241          49.000                  
  21031694.180    87565580.122          45.000  
  22443165.572                   120182141.165          45.000                  
  22443163.032    93475023.007          38.000  
  20034998.768                   106985799.964          51.000                  
  20035002.268    83211213.694          47.000  
  23256253.708                   124274387.316          43.000                  
  23256258.928    96657892.277          37.000  
  19727671.312                   105381695.626          53.000                  
  19727674.192    81963581.666          47.000  
  21875294.656                   117059128.846          47.000                  
  21875295.196    91046026.501          43.000  
  20623195.684                   110088020.199          52.000                  
  20623198.744    85624057.557          46.000  
  23190548.628                   124053811.724          47.000                  
  23190548.168    96486316.851          38.000  
 12 12 15 00 04 30.0000000  0 19G 1G 9G12G15G17G18G22G24G26G28R 6R 7
                                R 8R 9R15R16R17R18R19
  25173262.434                   132286381.866          39.000                  
  25173265.114   103080304.097          20.000  
  19607826.310                   103039844.900          51.000                  
  19607826.850    80290811.097          41.000  
  21899170.654                   115080925.884          48.000                  
  21899172.454    89673465.558          37.000  
  21548873.698                   113240107.890          50.000                  
  21548875.278    88239058.802          40.000  
  22076877.634                   116014787.548          50.000                  
  22076878.394    90401152.056          38.000  
  23509143.524                   123541365.658          45.000                  
  23509143.544    96266016.983          24.000  
  23922926.642                   125715819.531          45.000                  
  23922923.642    97960402.290          27.000  
  20216951.246                   106240795.233          51.000                  
  20216953.926    82785068.927          43.000  
  24293031.638                   127660746.110          42.000                  
  24293032.798    99475917.149          23.000  
  24647463.296                   129523329.223          43.000                  
  24647462.476   100927282.413          21.000  
  23036680.728                   122928148.822          44.000                  
  23036683.548    95610794.484          37.000  
  21034170.540                   112597548.916          49.000                  
  21034171.380    87575893.943          45.000  
  22424950.012                   120084590.297          45.000                  
  22424945.532    93399150.094          38.000  
  20016842.128                   106888841.203          52.000                  
  20016845.108    83135801.317          47.000  
  23267175.348                   124332756.736          42.000                  
  23267182.928    96703290.698          38.000  
  19727945.272                   105383158.278          53.000                  
  19727947.872    81964719.273          47.000  
  21879920.736                   117083890.544          47.000                  
  21879923.116    91065285.590          44.000  
  20605673.804                   109994493.996          52.000                  
  20605677.684    85551314.969          47.000  
  23157550.468                   123877293.735          48.000                  
  23157548.888    96349025.076          38.000  
 12 12 15 00 05  0.0000000  0 19G 1G 9G12G15G17G18G22G24G26G28R 6R 7
                                R 8R 9R15R16R17R18R19
  25167357.054                   132255351.213          38.000                  
  25167360.694   103056124.345          20.000  
  19601838.350                   103008379.258          51.000                  
  19601838.850    80266292.415          41.000  
  21875047.796                   114954158.650          48.000                  
  21875049.396    89574685.906          37.000  
  21556032.558                   113277729.850          51.000                  
  21556034.518    88268374.595          40.000  
  22071632.734                   115987224.475          49.000                  
  22071633.474    90379674.333          38.000  
  23510942.464                   123550823.300          45.000                  
  23510943.544    96273386.558          24.000  
  23915093.482                   125674661.834          45.000                  
  23915092.542    97928331.337          27.000  
  20204801.626                   106176951.587          51.000                  
  20204804.966    82735320.635          42.000  
  24308564.198                   127742373.774          41.000                  
  24308565.858    99539523.113          22.000  
  24657512.236                   129576130.230          44.000                  
  24657512.316   100968426.069          21.000  
  23053290.128                   123016779.859          44.000                  
  23053293.548    95679729.719          37.000  
  21036785.900                   112611546.905          49.000                  
  21036786.420    87586781.237          45.000  
  22406867.472                   119987753.590          46.000                  
  22406862.492    93323832.628          38.000  
  19998746.568                   106792210.069          51.000                  
  19998749.248    83060643.770          47.000  
  23278114.168                   124391206.195          44.000                  
  23278121.328    96748751.399          38.000  
  19728287.612                   105384989.721          53.000                  
  19728290.892    81966143.719          46.000  
  21884680.436                   117109351.621          48.000                  
  21884681.096    91085088.618          43.000  
  20588299.084                   109901739.632          53.000                  
  20588302.104    85479172.702          46.000  
  23124571.708                   123700885.178          47.000                  
  23124572.328    96211818.414          39.000  
 12 12 15 00 05 30.0000000  0 19G 1G 9G12G15G17G18G22G24G26G28R 6R 7
                                R 8R 9R15R16R17R18R19
  25161554.394                   132224862.763          38.000                  
  25161559.334   103032367.046          19.000  
  19595941.510                   102977392.805          51.000                  
  19595942.450    80242147.129          41.000  
  21850985.836                   114827708.676          49.000                  
  21850986.616    89476153.479          38.000  
  21563266.658                   113315745.444          50.000                  
  21563268.738    88297997.119          40.000  
  22066496.394                   115960233.365          48.000                  
  22066497.194    90358642.307          38.000  
  23512819.404                   123560681.689          45.000                  
  23512819.704    96281068.397          24.000  
  23907362.662                   125634031.762          45.000                  
  23907360.262    97896671.494          27.000  
  20192723.886                   106113481.889          51.000                  
  20192727.126    82685863.739          42.000  
  24324111.518                   127824073.312          41.000                  
  24324113.998    99603185.094          23.000  
  24667564.036                   129628965.363          41.000                  
  24667565.316   101009596.313          21.000  
  23069925.208                   123105545.040          44.000                  
  23069928.068    95748769.291          37.000  
  21039537.500                   112626276.794          49.000                  
  21039538.320    87598237.792          45.000  
  22388915.832                   119891630.078          46.000                  
  22388912.372    93249069.877          38.000  
  19980710.608                   106695904.029          51.000                  
  19980714.128    82985739.070          47.000  
  23289068.748                   124449732.367          45.000                  
  23289073.508    96794271.798          38.000  
  19728698.952                   105387186.844          53.000                  
  19728702.232    81967852.580          47.000  
  21889568.716                   117135506.047          49.000                  
  21889568.896    91105430.932          44.000  
  20571067.724                   109809756.619          53.000                  
  20571070.484    85407630.373          47.000  
  23091615.628                   123524587.090          48.000                  
  23091613.888    96074697.675          39.000  
 12 12 15 00 06  0.0000000  0 19G 1G 9G12G15G17G18G22G24G26G28R 6R 7
                                R 8R 9R15R16R17R18R19
  25155856.194                   132194922.435          36.000                  
  25155862.414   103009036.900          18.000  
  19590137.310                   102946891.517          52.000                  
  19590138.230    80218379.892          41.000  
  21826985.636                   114701583.852          50.000                  
  21826986.076    89377874.422          38.000  
  21570577.038                   113354158.926          50.000                  
  21570578.498    88327929.678          40.000  
  22061469.754                   115933820.077          49.000                  
  22061471.154    90338060.522          38.000  
  23514772.244                   123570944.770          44.000                  
  23514772.244    96289065.577          24.000  
  23899731.562                   125593935.098          44.000                  
  23899730.962    97865427.223          27.000  
  20180718.806                   106050393.125          51.000                  
  20180721.686    82636703.664          43.000  
  24339672.498                   127905848.766          41.000                  
  24339674.838    99666906.192          23.000  
  24677626.596                   129681839.499          41.000                  
  24677626.396   101050796.942          21.000  
  23086583.068                   123194446.838          42.000                  
  23086588.188    95817915.087          37.000  
  21042424.800                   112641741.387          48.000                  
  21042426.840    87610265.795          45.000  
  22371100.212                   119796228.600          46.000                  
  22371095.872    93174868.709          38.000  
  19962738.668                   106599930.445          52.000                  
  19962741.368    82911092.953          47.000  
  23300037.088                   124508340.438          44.000                  
  23300039.848    96839855.862          37.000  
  19729179.632                   105389754.911          53.000                  
  19729183.192    81969849.948          47.000  
  21894586.576                   117162357.118          49.000                  
  21894586.116    91126315.080          43.000  
  20553982.044                   109718553.844          53.000                  
  20553985.444    85336694.892          46.000  
  23058680.328                   123348410.079          47.000                  
  23058680.468    95937671.106          39.000  
 12 12 15 00 06 30.0000000  0 19G 1G 9G12G15G17G18G22G24G26G28R 6R 7
                                R 8R 9R15R16R17R18R19
  25150262.614                   132165527.475          36.000                  
  25150268.034   102986131.806          20.000  
  19584425.050                   102916872.847          51.000                  
  19584425.770    80194988.706          41.000  
  21803046.076                   114575782.804          50.000                  
  21803046.856    89279847.647          38.000  
  21577961.738                   113392965.356          50.000                  
  21577963.138    88358168.442          40.000  
  22056553.074                   115907981.425          50.000                  
  22056554.134    90317926.506          38.000  
  23516800.884                   123581608.020          44.000                  
  23516801.364    96297374.599          23.000  
  23892203.222                   125554368.982          46.000                  
  23892201.262    97834596.401          27.000  
  20168784.746                   105987683.586          50.000                  
  20168788.626    82587839.096          42.000  
  24355246.438                   127987695.173          42.000                  
  24355249.998    99730682.634          23.000  
  24687695.696                   129734748.413          42.000                  
  24687696.156   101092024.667          21.000  
  23103269.848                   123283478.087          43.000                  
  23103272.868    95887161.609          37.000  
  21045450.520                   112657935.094          48.000                  
  21045452.080    87622860.860          45.000  
  22353419.672                   119701550.264          46.000                  
  22353415.752    93101229.970          38.000  
  19944827.948                   106504287.620          52.000                  
  19944830.648    82836704.092          47.000  
  23311018.928                   124567027.335          45.000                  
  23311021.808    96885501.211          37.000  
  19729729.032                   105392690.746          52.000                  
  19729732.792    81972133.357          47.000  
  21899733.336                   117189898.963          49.000                  
  21899732.616    91147736.506          43.000  
  20537041.664                   109628130.894          52.000                  
  20537045.544    85266365.927          46.000  
  23025769.228                   123172355.489          47.000                  
  23025768.428    95800739.746          39.000  
 12 12 15 00 07  0.0000000  0 19G 1G 9G12G15G17G18G22G24G26G28R 6R 7
                                R 8R 9R15R16R17R18R19
  25444565.712                   133712096.744          38.000                  
  25444571.532   104191250.754          21.000  
  19878597.128                   104462756.471          51.000                  
  19878597.788    81399573.340          41.000  
  22078961.794                   116025729.221          50.000                  
  22078962.414    90409676.061          38.000  
  21885212.054                   115007580.321          50.000                  
  21885214.074    89616309.951          39.000  
  22351538.252                   117458136.342          49.000                  
  22351538.952    91525839.432          39.000  
  23818698.582                   125168086.588          44.000                  
  23818698.962    97533591.650          24.000  
  24184567.960                   127090753.086          45.000                  
  24184565.360    99031778.798          27.000  
  20456716.884                   107500774.719          50.000                  
  20456720.144    83766871.158          42.000  
  24670626.196                   129645026.170          42.000                  
  24670629.356   101022109.387          23.000  
  24997561.854                   131363107.656          42.000                  
  24997562.694   102360876.048          21.000  
  23419768.364                   124972379.546          43.000                  
  23419771.944    97200751.625          36.000  
  21348404.200                   114279665.744          49.000                  
  21348404.820    88884206.892          45.000  
  22635667.272                   121212972.438          47.000                  
  22635663.112    94276780.544          37.000  
  20226771.648                   108009852.623          52.000                  
  20226774.608    84007699.096          47.000  
  23621807.964                   126227788.765          44.000                  
  23621811.044    98177204.527          37.000  
  20030139.688                   106997430.073          52.000                  
  20030143.368    83220263.918          47.000  
  22204799.892                   118822376.181          47.000                  
  22204799.852    92417441.003          42.000  
  20820042.304                   111138804.425          53.000                  
  20820045.864    86441334.233          46.000  
  23292675.088                   124600119.506          47.000                  
  23292673.908    96911222.875          40.000  
 12 12 15 00 07 30.0000000  0 19G 1G 9G12G15G17G18G22G24G26G28R 6R 7
                                R 8R 9R15R16R17R18R19
  25439180.112                   133683793.299          34.000                  
  25439183.252   104169196.135          12.000  
  19873068.748                   104433705.689          51.000                  
  19873069.648    81376936.361          42.000  
  22055146.294                   115900581.082          49.000                  
  22055147.514    90312158.039          39.000  
  21892745.574                   115047168.973          50.000                  
  21892747.574    89647158.237          39.000  
  22346840.112                   117433447.751          50.000                  
  22346841.012    91506601.573          39.000  
  23820879.082                   125179544.231          44.000                  
  23820879.142    97542519.668          24.000  
  24177240.520                   127052248.792          45.000                  
  24177238.460    99001775.411          27.000  
  20444928.904                   107438828.075          51.000                  
  20444932.024    83718601.056          43.000  
  24686227.576                   129727010.092          42.000                  
  24686230.376   101085992.952          23.000  
  25007641.234                   131416084.433          40.000                  
  25007643.214   102402156.631          20.000  
  23436497.364                   125061658.429          42.000                  
  23436503.144    97270190.735          37.000  
  21351701.300                   114297311.398          49.000                  
  21351701.100    88897931.252          45.000  
  22618258.912                   121119746.186          46.000                  
  22618253.392    94204271.220          37.000  
  20208984.968                   107914875.705          52.000                  
  20208988.388    83933828.166          47.000  
  23632819.564                   126286632.980          45.000                  
  23632824.384    98222972.235          38.000  
  20030826.988                   107001102.337          51.000                  
  20030830.708    83223120.102          46.000  
  22210203.632                   118851292.472          49.000                  
  22210203.292    92439931.439          42.000  
  20803398.004                   111049950.852          52.000                  
  20803400.184    86372225.896          46.000  
  23259810.068                   124424324.659          46.000                  
  23259810.988    96774493.555          40.000  
 12 12 15 00 08  0.0000000  0 18G 9G12G15G17G18G22G24G26G28R 6R 7R 8
                                R 9R15R16R17R18R19
  19867633.648                   104405142.125          51.000                  
  19867634.308    81354679.032          41.000  
  22031393.954                   115775764.236          50.000                  
  22031395.574    90214898.159          39.000  
  21900353.074                   115087148.487          50.000                  
  21900355.394    89678311.097          39.000  
  22342251.452                   117409336.206          49.000                  
  22342252.512    91487813.340          39.000  
  23823134.542                   125191398.756          45.000                  
  23823135.382    97551756.925          24.000  
  24170014.400                   127014277.341          44.000                  
  24170012.700    98972187.230          27.000  
  20433214.684                   107377266.504          50.000                  
  20433217.284    83670631.005          43.000  
  24701841.536                   129809062.449          43.000                  
  24701844.876   101149929.881          23.000  
  25017730.894                   131469095.809          42.000                  
  25017730.814   102443464.213          20.000  
  23453250.224                   125151057.864          43.000                  
  23453256.104    97339723.611          37.000  
  21355131.800                   114315681.139          49.000                  
  21355133.100    88912218.816          45.000  
  22600986.172                   121027252.029          46.000                  
  22600980.452    94132331.297          37.000  
  20191261.888                   107820235.978          52.000                  
  20191265.368    83860219.502          47.000  
  23643846.864                   126345557.708          44.000                  
  23643851.264    98268802.536          38.000  
  20031582.248                   107005144.861          50.000                  
  20031587.368    83226264.261          47.000  
  22215736.012                   118880893.997          49.000                  
  22215735.532    92462954.837          42.000  
  20786899.384                   110961888.492          52.000                  
  20786903.464    86303732.964          46.000  
  23226973.668                   124248668.869          46.000                  
  23226974.508    96637872.390          40.000  
 12 12 15 00 08 30.0000000  0 19G 9G12G14G15G17G18G22G24G26G28R 6R 7
                                R 8R 9R15R16R17R18R19
  19862289.908                   104377062.445          51.000                  
  19862290.908    81332798.749          41.000  
  22007705.474                   115651276.560          50.000                  
  22007706.474    90117894.800          38.000  
  24938885.014                   131054728.062          41.000                  
  24938884.034   102120576.606          17.000  
  21908034.734                   115127513.652          50.000                  
  21908036.574    89709764.454          38.000  
  22337772.432                   117385797.300          51.000                  
  22337773.072    91469471.339          39.000  
  23825464.442                   125203644.481          43.000                  
  23825465.042    97561299.052          24.000  
  24162888.100                   126976835.174          43.000                  
  24162887.880    98943011.472          26.000  
  20421571.924                   107316088.037          51.000                  
  20421575.364    83622959.471          43.000  
  24717467.376                   129891177.592          43.000                  
  24717470.336   101213915.695          23.000  
  25027824.614                   131522137.862          41.000                  
  25027824.474   102484795.707          19.000  
  23470028.704                   125240570.200          45.000                  
  23470031.404    97409344.289          37.000  
  21358698.300                   114334768.715          50.000                  
  21358698.760    88927064.682          45.000  
  22583850.332                   120935489.795          46.000                  
  22583845.152    94060960.635          37.000  
  20173602.088                   107725930.991          52.000                  
  20173604.988    83786871.181          47.000  
  23654886.084                   126404559.126          44.000                  
  23654892.584    98314692.507          38.000  
  20032408.548                   107009553.338          51.000                  
  20032412.588    83229693.055          46.000  
  22221394.732                   118911174.276          50.000                  
  22221394.172    92486506.186          42.000  
  20770550.144                   110874616.332          51.000                  
  20770554.304    86235854.615          46.000  
  23194163.348                   124073152.871          46.000                  
  23194163.388    96501359.940          40.000  
 12 12 15 00 09  0.0000000  0 19G 9G12G14G15G17G18G22G24G26G28R 6R 7
                                R 8R 9R15R16R17R18R19
  19857038.228                   104349462.888          51.000                  
  19857038.908    81311292.589          41.000  
  21984078.734                   115527115.527          50.000                  
  21984079.274    90021145.962          38.000  
  24911219.914                   130909345.998          40.000                  
  24911219.314   102007291.870          17.000  
  21915788.954                   115168258.525          49.000                  
  21915790.114    89741513.687          38.000  
  22333400.732                   117362826.767          50.000                  
  22333401.952    91451572.225          38.000  
  23827868.522                   125216275.397          44.000                  
  23827868.722    97571141.310          24.000  
  24155863.100                   126939917.866          43.000                  
  24155862.500    98914244.713          26.000  
  20410002.704                   107255289.198          51.000                  
  20410005.724    83575583.764          42.000  
  24733103.776                   129973349.840          43.000                  
  24733107.696   101277946.013          23.000  
  25037923.874                   131575205.217          42.000                  
  25037923.294   102526146.890          19.000  
  23486823.304                   125330187.355          46.000                  
  23486825.504    97479046.506          37.000  
  21362397.040                   114354567.458          50.000                  
  21362397.000    88942463.716          44.000  
  22566849.272                   120844457.677          45.000                  
  22566845.892    93990157.851          37.000  
  20156004.868                   107631958.052          53.000                  
  20156006.808    83713781.132          47.000  
  23665942.204                   126463632.794          44.000                  
  23665946.264    98360638.651          37.000  
  20033302.448                   107014323.955          52.000                  
  20033305.808    83233403.499          47.000  
  22227178.892                   118942126.554          49.000                  
  22227178.492    92510580.180          42.000  
  20754348.624                   110788132.745          51.000                  
  20754353.044    86168589.616          46.000  
  23161379.848                   123897777.341          46.000                  
  23161378.888    96364956.757          40.000  
 12 12 15 00 09 30.0000000  0 19G 9G12G14G15G17G18G22G24G26G28R 6R 7
                                R 8R 9R15R16R17R18R19
  19851878.068                   104322346.613          51.000                  
  19851878.908    81290163.014          41.000  
  21960514.434                   115403284.634          49.000                  
  21960514.834    89924654.363          38.000  
  24883578.774                   130764096.554          39.000                  
  24883579.854   101894110.513          18.000  
  21923614.374                   115209383.967          49.000                  
  21923616.114    89773559.464          38.000  
  22329138.052                   117340427.431          49.000                  
  22329139.772    91434118.196          38.000  
  23830345.002                   125229291.928          44.000                  
  23830345.842    97581284.046          24.000  
  24148937.160                   126903527.794          42.000                  
  24148937.840    98885888.796          26.000  
  20398505.784                   107194873.810          51.000                  
  20398509.004    83528506.836          43.000  
  24748751.836                   130055579.660          43.000                  
  24748755.496   101342021.210          23.000  
  25048025.854                   131628299.192          41.000                  
  25048026.014   102567518.818          19.000  
  23503634.944                   125419907.516          45.000                  
  23503638.464    97548828.813          38.000  
  21366229.360                   114375076.841          50.000                  
  21366228.440    88958415.442          44.000  
  22549986.712                   120754160.620          45.000                  
  22549982.772    93919926.790          37.000  
  20138469.668                   107538320.865          53.000                  
  20138471.608    83640952.216          47.000  
  23677011.504                   126522780.947          43.000                  
  23677015.184    98406642.744          37.000  
  20034263.988                   107019458.697          52.000                  
  20034266.948    83237397.165          46.000  
  22233089.952                   118973750.304          49.000                  
  22233088.332    92535176.428          43.000  
  20738296.844                   110702442.994          51.000                  
  20738300.344    86101942.040          46.000  
  23128621.368                   123722549.105          45.000                  
  23128621.968    96228668.145          40.000  
 12 12 15 00 10  0.0000000  0 19G 9G12G14G15G17G18G22G24G26G28R 6R 7
                                R 8R 9R15R16R17R18R19
  19846809.388                   104295711.558          50.000                  
  19846810.428    81269408.417          42.000  
  21937012.934                   115279784.001          50.000                  
  21937013.354    89828420.116          37.000  
  24855964.756                   130618980.153          39.000                  
  24855964.776   101781032.785          17.000  
  21931512.014                   115250885.847          48.000                  
  21931513.594    89805898.570          38.000  
  22324983.932                   117318596.453          49.000                  
  22324985.452    91417107.040          38.000  
  23832895.442                   125242689.552          44.000                  
  23832895.102    97591723.744          24.000  
  24142113.300                   126867662.490          45.000                  
  24142112.320    98857941.758          26.000  
  20387082.064                   107134840.923          52.000                  
  20387085.224    83481727.955          43.000  
  24764410.536                   130137863.071          42.000                  
  24764412.856   101406138.170          23.000  
  25058131.474                   131681416.944          39.000                  
  25058132.374   102608909.251          19.000  
  23520466.844                   125509725.312          46.000                  
  23520470.504    97618687.088          38.000  
  21370192.100                   114396291.601          50.000                  
  21370191.560    88974915.774          45.000  
  22533262.552                   120664598.474          45.000                  
  22533258.112    93850267.337          37.000  
  20120996.568                   107445018.075          53.000                  
  20120998.948    83568383.399          47.000  
  23688093.324                   126582000.960          43.000                  
  23688096.704    98452702.700          37.000  
  20035292.408                   107024955.208          52.000                  
  20035296.008    83241672.219          46.000  
  22239123.292                   119006040.396          48.000                  
  22239122.532    92560290.921          43.000  
  20722392.824                   110617547.331          51.000                  
  20722396.524    86035912.104          46.000  
  23095893.848                   123547471.083          46.000                  
  23095893.148    96092496.358          40.000  
 12 12 15 00 10 30.0000000  0 19G 9G12G14G15G17G18G22G24G26G28R 6R 7
                                R 8R 9R15R16R17R18R19
  19841833.088                   104269560.849          52.000                  
  19841834.248    81249031.229          41.000  
  21913574.374                   115156617.644          49.000                  
  21913575.634    89732446.347          37.000  
  24828375.916                   130474002.193          40.000                  
  24828375.996   101668062.923          18.000  
  21939481.414                   115292765.174          50.000                  
  21939483.034    89838531.791          38.000  
  22320938.292                   117297335.704          50.000                  
  22320939.272    91400540.229          38.000  
  23835516.902                   125256469.248          44.000                  
  23835517.442    97602461.178          24.000  
  24135389.060                   126832324.433          44.000                  
  24135387.980    98830405.551          27.000  
  20375731.446                   107075193.951          51.000                  
  20375734.706    83435249.789          43.000  
  24780079.416                   130220200.891          44.000                  
  24780081.756   101470297.503          23.000  
  25068246.114                   131734559.959          40.000                  
  25068246.794   102650319.415          20.000  
  23537317.164                   125599638.633          47.000                  
  23537320.084    97688619.646          38.000  
  21374285.860                   114418211.785          49.000                  
  21374286.640    88991964.778          44.000  
  22516677.152                   120575776.640          46.000                  
  22516671.092    93781183.691          38.000  
  20103586.568                   107352053.916          52.000                  
  20103589.868    83496077.962          47.000  
  23699190.884                   126641295.082          44.000                  
  23699193.004    98498820.294          37.000  
  20036389.428                   107030815.826          52.000                  
  20036393.048    83246230.461          46.000  
  22245280.652                   119038996.517          48.000                  
  22245281.432    92585923.441          43.000  
  20706638.584                   110533450.968          51.000                  
  20706642.624    85970503.839          46.000  
  23063192.608                   123372549.850          45.000                  
  23063193.028    95956446.527          40.000  
 12 12 15 00 11  0.0000000  0 19G 9G12G14G15G17G18G22G24G26G28R 6R 7
                                R 8R 9R15R16R17R18R19
  19836949.088                   104243894.838          50.000                  
  19836950.048    81229031.730          41.000  
  21890201.094                   115033786.792          48.000                  
  21890202.014    89636734.009          37.000  
  24800813.196                   130329165.199          40.000                  
  24800814.456   101555202.951          19.000  
  21947522.274                   115335020.312          49.000                  
  21947523.614    89871457.855          38.000  
  22317001.192                   117276645.260          50.000                  
  22317002.032    91384417.810          38.000  
  23838211.602                   125270628.897          44.000                  
  23838212.202    97613494.689          24.000  
  24128765.720                   126797513.287          45.000                  
  24128763.960    98803279.933          27.000  
  20364454.566                   107015934.343          52.000                  
  20364457.986    83389073.473          42.000  
  24795757.576                   130302591.223          43.000                  
  24795760.056   101534497.789          23.000  
  25078365.114                   131787727.409          41.000                  
  25078364.434   102691748.571          18.000  
  23554184.684                   125689644.113          47.000                  
  23554187.504    97758623.885          39.000  
  21378512.520                   114440834.357          50.000                  
  21378513.000    89009560.089          45.000  
  22500229.732                   120487698.213          47.000                  
  22500223.112    93712678.229          38.000  
  20086241.588                   107259429.828          52.000                  
  20086244.388    83424037.018          47.000  
  23710299.444                   126700663.356          43.000                  
  23710303.524    98544995.614          37.000  
  20037555.048                   107037040.410          53.000                  
  20037558.448    83251071.797          46.000  
  22251564.072                   119072615.623          47.000                  
  22251563.692    92612071.622          42.000  
  20691035.144                   110450156.589          51.000                  
  20691038.484    85905719.337          45.000  
  23030524.668                   123197790.345          46.000                  
  23030523.868    95820522.489          40.000  
 12 12 15 00 11 30.0000000  0 19G 9G12G14G15G17G18G22G24G26G28R 6R 7
                                R 8R 9R15R16R17R18R19
  19832156.768                   104218714.303          51.000                  
  19832158.348    81209410.523          41.000  
  21866891.096                   114911293.047          50.000                  
  21866892.356    89541284.352          38.000  
  24773280.776                   130184472.277          41.000                  
  24773280.356   101442455.218          19.000  
  21955634.234                   115377649.798          50.000                  
  21955635.814    89904675.608          37.000  
  22313172.432                   117256525.385          51.000                  
  22313173.652    91368739.981          39.000  
  23840978.122                   125285166.482          44.000                  
  23840978.082    97624822.675          24.000  
  24122241.600                   126763228.939          46.000                  
  24122239.360    98776564.855          27.000  
  20353251.506                   106957063.150          51.000                  
  20353255.206    83343199.814          43.000  
  24811445.276                   130385032.614          44.000                  
  24811448.376   101598737.827          23.000  
  25088486.174                   131840918.600          41.000                  
  25088486.194   102733196.279          19.000  
  23571066.404                   125779738.550          46.000                  
  23571071.204    97828697.311          39.000  
  21382869.260                   114464156.857          49.000                  
  21382869.960    89027699.768          46.000  
  22483919.652                   120400364.569          46.000                  
  22483914.952    93644752.061          38.000  
  20068960.088                   107167146.958          52.000                  
  20068962.748    83352261.446          47.000  
  23721424.484                   126760105.560          44.000                  
  23721428.764    98591228.394          38.000  
  20038788.888                   107043628.990          53.000                  
  20038791.728    83256196.234          46.000  
  22257967.412                   119106895.209          46.000                  
  22257969.072    92638733.501          43.000  
  20675581.804                   110367666.596          52.000                  
  20675585.684    85841560.461          46.000  
  22997884.208                   123023197.467          45.000                  
  22997885.608    95684728.049          39.000  
 12 12 15 00 12  0.0000000  0 19G 9G12G14G15G17G18G22G24G26G28R 6R 7
                                R 8R 9R15R16R17R18R19
  19827457.888                   104194019.344          51.000                  
  19827459.068    81190167.686          41.000  
  21843645.796                   114789138.171          50.000                  
  21843646.996    89446098.731          38.000  
  24745774.696                   130039925.745          41.000                  
  24745773.996   101329821.562          20.000  
  21963817.454                   115420651.215          50.000                  
  21963818.614    89938183.199          38.000  
  22309452.912                   117236974.963          51.000                  
  22309453.512    91353505.886          39.000  
  23843817.082                   125300079.915          44.000                  
  23843816.062    97636443.532          23.000  
  24115818.860                   126729470.746          47.000                  
  24115815.520    98750259.712          28.000  
  20342123.166                   106898581.313          51.000                  
  20342126.626    83297629.547          43.000  
  24827143.076                   130467522.863          42.000                  
  24827145.016   101663015.970          22.000  
  25098611.854                   131894132.269          41.000                  
  25098612.694   102774661.463          18.000  
  23587967.204                   125869916.624          47.000                  
  23587970.744    97898835.809          40.000  
  21387355.980                   114488176.248          49.000                  
  21387356.980    89046381.477          46.000  
  22467749.912                   120313778.292          46.000                  
  22467745.932    93577407.192          39.000  
  20051741.968                   107075206.265          52.000                  
  20051745.028    83280752.031          47.000  
  23732562.084                   126819621.103          45.000                  
  23732566.464    98637518.221          38.000  
  20040089.928                   107050581.113          52.000                  
  20040093.088    83261603.424          46.000  
  22264497.172                   119141831.906          46.000                  
  22264498.372    92665906.463          42.000  
  20660280.364                   110285983.219          52.000                  
  20660283.444    85778028.954          46.000  
  22965279.028                   122848775.596          46.000                  
  22965279.348    95549066.592          39.000  
 12 12 15 00 12 30.0000000  0 19G 9G12G14G15G17G18G22G24G26G28R 6R 7
                                R 8R 9R15R16R17R18R19
  19822850.328                   104169807.230          49.000                  
  19822851.668    81171301.087          41.000  
  21820465.036                   114667320.451          49.000                  
  21820465.576    89351175.821          39.000  
  24718296.556                   129895525.490          41.000                  
  24718296.036   101217301.860          20.000  
  21972069.954                   115464020.085          50.000                  
  21972071.594    89971977.101          38.000  
  22305840.052                   117217990.543          49.000                  
  22305840.812    91338712.840          39.000  
  23846725.122                   125315364.370          43.000                  
  23846724.102    97648353.493          24.000  
  24109495.620                   126696235.823          46.000                  
  24109491.560    98724362.351          28.000  
  20331068.326                   106840486.935          51.000                  
  20331071.686    83252361.207          43.000  
  24842849.596                   130550057.244          42.000                  
  24842851.776   101727328.481          22.000  
  25108743.314                   131947364.583          42.000                  
  25108741.994   102816141.208          20.000  
  23604880.264                   125960172.352          48.000                  
  23604884.064    97969034.672          40.000  
  21391972.960                   114512886.483          49.000                  
  21391973.040    89065600.507          46.000  
  22451719.772                   120227937.950          46.000                  
  22451714.652    93510642.468          39.000  
  20034589.028                   106983606.112          53.000                  
  20034591.248    83209507.465          47.000  
  23743712.644                   126879206.521          44.000                  
  23743716.544    98683862.424          38.000  
  20041458.948                   107057893.491          53.000                  
  20041462.028    83267290.812          46.000  
  22271148.292                   119177419.602          47.000                  
  22271148.852    92693585.771          42.000  
  20645128.764                   110205105.843          52.000                  
  20645132.284    85715124.334          46.000  
  22932705.768                   122674526.070          47.000                  
  22932705.088    95413539.172          39.000  
 12 12 15 00 13  0.0000000  0 19G 9G12G14G15G17G18G22G24G26G28R 6R 7
                                R 8R 9R15R16R17R18R19
  19818335.108                   104146076.854          51.000                  
  19818335.908    81152809.869          41.000  
  21797348.496                   114545839.848          50.000                  
  21797348.536    89256515.611          39.000  
  24690844.676                   129751272.357          41.000                  
  24690845.696   101104896.829          20.000  
  21980392.494                   115507752.945          50.000                  
  21980393.654    90006054.637          38.000  
  22302334.152                   117199569.925          51.000                  
  22302335.292    91324359.118          38.000  
  23849703.102                   125331015.778          42.000                  
  23849702.582    97660549.404          23.000  
  24103270.240                   126663521.937          44.000                  
  24103266.140    98698871.100          28.000  
  20320086.806                   106782779.307          50.000                  
  20320090.186    83207394.228          43.000  
  24858563.296                   130632632.249          42.000                  
  24858565.116   101791672.641          22.000  
  25118873.514                   132000613.116          41.000                  
  25118875.354   102857633.568          19.000  
  23621807.744                   126050499.954          48.000                  
  23621811.564    98039289.450          40.000  
  21396717.040                   114538282.469          49.000                  
  21396717.220    89085352.907          45.000  
  22435830.512                   120142845.078          47.000                  
  22435824.752    93444459.105          39.000  
  20017498.848                   106892346.188          53.000                  
  20017501.488    83138527.528          47.000  
  23754874.024                   126938860.001          42.000                  
  23754879.264    98730259.553          38.000  
  20042895.288                   107065564.083          53.000                  
  20042897.848    83273256.810          46.000  
  22277919.092                   119213653.744          48.000                  
  22277920.332    92721767.875          42.000  
  20630129.124                   110125035.136          51.000                  
  20630132.224    85652847.133          46.000  
  22900164.148                   122500452.140          48.000                  
  22900164.128    95278148.331          39.000  
 12 12 15 00 13 30.0000000  0 19G 9G12G14G15G17G18G22G24G26G28R 6R 7
                                R 8R 9R15R16R17R18R19
  19813911.148                   104122828.159          52.000                  
  19813911.928    81134693.994          41.000  
  21774295.536                   114424697.610          50.000                  
  21774295.816    89162119.068          39.000  
  24663424.236                   129607168.842          40.000                  
  24663422.516   100992608.344          20.000  
  21988783.294                   115551847.800          49.000                  
  21988784.614    90040414.255          38.000  
  22298935.152                   117181712.687          50.000                  
  22298937.232    91310444.391          38.000  
  23852751.242                   125347031.781          43.000                  
  23852751.282    97673029.396          22.000  
  24097142.760                   126631328.274          47.000                  
  24097139.960    98673785.103          28.000  
  20309179.386                   106725459.771          52.000                  
  20309182.666    83162729.653          43.000  
  24874283.956                   130715245.795          42.000                  
  24874286.216   101856046.838          22.000  
  25129011.174                   132053876.724          41.000                  
  25129009.574   102899137.655          20.000  
  23638749.524                   126140895.067          49.000                  
  23638751.484    98109596.747          40.000  
  21401588.940                   114564361.132          49.000                  
  21401588.900    89105636.272          45.000  
  22420079.372                   120058501.282          47.000                  
  22420073.852    93378858.381          39.000  
  20000473.048                   106801427.256          52.000                  
  20000475.148    83067812.808          47.000  
  23766050.124                   126998581.215          43.000                  
  23766055.284    98776709.347          37.000  
  20044398.208                   107073592.540          53.000                  
  20044400.968    83279501.151          46.000  
  22284811.452                   119250530.875          48.000                  
  22284811.792    92750450.066          43.000  
  20615280.624                   110045773.072          52.000                  
  20615283.904    85591198.876          46.000  
  22867656.268                   122326558.143          48.000                  
  22867656.488    95142897.437          39.000  
 12 12 15 00 14  0.0000000  0 19G 9G12G14G15G17G18G22G24G26G28R 6R 7
                                R 8R 9R15R16R17R18R19
  19809578.068                   104100058.224          51.000                  
  19809578.988    81116951.168          41.000  
  21751306.416                   114303891.441          50.000                  
  21751307.376    89067984.387          39.000  
  24636030.456                   129463214.624          41.000                  
  24636029.256   100880436.226          20.000  
  21997241.674                   115596299.336          49.000                  
  21997243.514    90075051.801          37.000  
  22295645.272                   117164414.889          50.000                  
  22295645.832    91296965.581          39.000  
  23855865.762                   125363406.992          43.000                  
  23855866.322    97685789.277          21.000  
  24091113.240                   126599651.264          45.000                  
  24091112.320    98649101.705          27.000  
  20298344.866                   106668525.438          51.000                  
  20298348.386    83118365.227          42.000  
  24890010.514                   130797892.888          42.000                  
  24890012.914   101920447.163          22.000  
  25139147.434                   132107151.312          39.000                  
  25139148.214   102940650.344          19.000  
  23655699.524                   126231350.796          48.000                  
  23655702.804    98179951.168          41.000  
  21406586.340                   114591116.128          48.000                  
  21406586.860    89126445.657          45.000  
  22404466.652                   119974905.169          46.000                  
  22404463.512    93313839.178          39.000  
  19983509.888                   106710847.638          52.000                  
  19983512.608    82997362.008          47.000  
  23777238.884                   127058366.177          42.000                  
  23777243.364    98823208.720          38.000  
  20045967.208                   107081975.416          53.000                  
  20045970.508    83286021.158          47.000  
  22291821.512                   119288044.511          48.000                  
  22291822.032    92779627.315          43.000  
  20600584.124                   109967318.706          52.000                  
  20600587.384    85530178.825          47.000  
  22835182.408                   122152845.178          48.000                  
  22835182.308    95007787.344          39.000  
 12 12 15 00 14 30.0000000  0 19G 9G12G14G15G17G18G22G24G26G28R 6R 7
                                R 8R 9R15R16R17R18R19
  19805337.228                   104077773.151          50.000                  
  19805338.108    81099586.175          41.000  
  21728382.856                   114183429.007          50.000                  
  21728384.036    88974117.570          38.000  
  24608666.356                   129319417.880          41.000                  
  24608665.916   100768386.811          20.000  
  22005769.314                   115641111.672          49.000                  
  22005771.014    90109970.486          38.000  
  22292460.012                   117147681.745          48.000                  
  22292461.332    91283926.775          39.000  
  23859050.342                   125380145.000          41.000                  
  23859053.402    97698831.869          21.000  
  24085185.020                   126568496.247          45.000                  
  24085183.620    98624825.050          27.000  
  20287585.006                   106611983.311          51.000                  
  20287588.866    83074306.424          43.000  
  24905744.934                   130880577.356          42.000                  
  24905748.414   101984876.622          21.000  
  25149288.914                   132160441.699          40.000                  
  25149289.634   102982175.292          20.000  
  23672663.884                   126321869.108          48.000                  
  23672665.784    98250354.275          41.000  
  21411712.180                   114618550.277          48.000                  
  21411712.040    89147783.283          45.000  
  22388996.992                   119892065.208          45.000                  
  22388993.552    93249408.080          39.000  
  19966611.908                   106620614.206          52.000                  
  19966614.528    82927180.454          47.000  
  23788439.704                   127118220.778          43.000                  
  23788444.144    98869762.259          37.000  
  20047603.648                   107090718.206          53.000                  
  20047607.368    83292821.092          47.000  
  22298951.812                   119326197.498          48.000                  
  22298952.052    92809301.829          43.000  
  20586039.044                   109889680.029          52.000                  
  20586042.764    85469793.188          47.000  
  22802744.008                   121979323.928          48.000                  
  22802745.128    94872826.368          39.000  
